[
  {
    "name": "AGRONOMIA",
    "type": "entity",
    "censusCode": "02105010001",
    "latitude": -34.5929442472726,
    "longitude": -58.4886714155361,
    "departmentCode": "AR-C-105",
    "departmentName": "Comuna 15",
    "provinceCode": "AR-C",
    "provinceName": "Ciudad Autónoma de Buenos Aires"
  },
  {
    "name": "ALMAGRO",
    "type": "entity",
    "censusCode": "02035010001",
    "latitude": -34.6092276891202,
    "longitude": -58.4217452253939,
    "departmentCode": "AR-C-035",
    "departmentName": "Comuna 5",
    "provinceCode": "AR-C",
    "provinceName": "Ciudad Autónoma de Buenos Aires"
  },
  {
    "name": "BALVANERA",
    "type": "entity",
    "censusCode": "02021010001",
    "latitude": -34.6090997738407,
    "longitude": -58.4030625195747,
    "departmentCode": "AR-C-021",
    "departmentName": "Comuna 3",
    "provinceCode": "AR-C",
    "provinceName": "Ciudad Autónoma de Buenos Aires"
  },
  {
    "name": "BARRACAS",
    "type": "entity",
    "censusCode": "02028010001",
    "latitude": -34.6464135507847,
    "longitude": -58.3842710319828,
    "departmentCode": "AR-C-028",
    "departmentName": "Comuna 4",
    "provinceCode": "AR-C",
    "provinceName": "Ciudad Autónoma de Buenos Aires"
  },
  {
    "name": "BELGRANO",
    "type": "entity",
    "censusCode": "02091010001",
    "latitude": -34.5548815240237,
    "longitude": -58.4502890947349,
    "departmentCode": "AR-C-091",
    "departmentName": "Comuna 13",
    "provinceCode": "AR-C",
    "provinceName": "Ciudad Autónoma de Buenos Aires"
  },
  {
    "name": "BOCA",
    "type": "entity",
    "censusCode": "02028010002",
    "latitude": -34.6310700719721,
    "longitude": -58.3568304109892,
    "departmentCode": "AR-C-028",
    "departmentName": "Comuna 4",
    "provinceCode": "AR-C",
    "provinceName": "Ciudad Autónoma de Buenos Aires"
  },
  {
    "name": "BOEDO",
    "type": "entity",
    "censusCode": "02035010002",
    "latitude": -34.6299600080664,
    "longitude": -58.4188403738383,
    "departmentCode": "AR-C-035",
    "departmentName": "Comuna 5",
    "provinceCode": "AR-C",
    "provinceName": "Ciudad Autónoma de Buenos Aires"
  },
  {
    "name": "CABALLITO",
    "type": "entity",
    "censusCode": "02042010001",
    "latitude": -34.6168254996915,
    "longitude": -58.443603110353,
    "departmentCode": "AR-C-042",
    "departmentName": "Comuna 6",
    "provinceCode": "AR-C",
    "provinceName": "Ciudad Autónoma de Buenos Aires"
  },
  {
    "name": "CHACARITA",
    "type": "entity",
    "censusCode": "02105010002",
    "latitude": -34.5883730730472,
    "longitude": -58.4541748568778,
    "departmentCode": "AR-C-105",
    "departmentName": "Comuna 15",
    "provinceCode": "AR-C",
    "provinceName": "Ciudad Autónoma de Buenos Aires"
  },
  {
    "name": "COGHLAN",
    "type": "entity",
    "censusCode": "02084010001",
    "latitude": -34.5606251344745,
    "longitude": -58.4749447458843,
    "departmentCode": "AR-C-084",
    "departmentName": "Comuna 12",
    "provinceCode": "AR-C",
    "provinceName": "Ciudad Autónoma de Buenos Aires"
  },
  {
    "name": "COLEGIALES",
    "type": "entity",
    "censusCode": "02091010002",
    "latitude": -34.5746427442082,
    "longitude": -58.4509682045183,
    "departmentCode": "AR-C-091",
    "departmentName": "Comuna 13",
    "provinceCode": "AR-C",
    "provinceName": "Ciudad Autónoma de Buenos Aires"
  },
  {
    "name": "CONSTITUCION",
    "type": "entity",
    "censusCode": "02007010001",
    "latitude": -34.6250478642294,
    "longitude": -58.384387226424,
    "departmentCode": "AR-C-007",
    "departmentName": "Comuna 1",
    "provinceCode": "AR-C",
    "provinceName": "Ciudad Autónoma de Buenos Aires"
  },
  {
    "name": "FLORES",
    "type": "entity",
    "censusCode": "02049010001",
    "latitude": -34.6368070795903,
    "longitude": -58.4582698515258,
    "departmentCode": "AR-C-049",
    "departmentName": "Comuna 7",
    "provinceCode": "AR-C",
    "provinceName": "Ciudad Autónoma de Buenos Aires"
  },
  {
    "name": "FLORESTA",
    "type": "entity",
    "censusCode": "02070010001",
    "latitude": -34.6276862905939,
    "longitude": -58.4835872783595,
    "departmentCode": "AR-C-070",
    "departmentName": "Comuna 10",
    "provinceCode": "AR-C",
    "provinceName": "Ciudad Autónoma de Buenos Aires"
  },
  {
    "name": "LINIERS",
    "type": "entity",
    "censusCode": "02063010001",
    "latitude": -34.6437960835294,
    "longitude": -58.5191298958228,
    "departmentCode": "AR-C-063",
    "departmentName": "Comuna 9",
    "provinceCode": "AR-C",
    "provinceName": "Ciudad Autónoma de Buenos Aires"
  },
  {
    "name": "MATADEROS",
    "type": "entity",
    "censusCode": "02063010002",
    "latitude": -34.6583682885816,
    "longitude": -58.5017319521437,
    "departmentCode": "AR-C-063",
    "departmentName": "Comuna 9",
    "provinceCode": "AR-C",
    "provinceName": "Ciudad Autónoma de Buenos Aires"
  },
  {
    "name": "MONSERRAT",
    "type": "entity",
    "censusCode": "02007010002",
    "latitude": -34.6126880821742,
    "longitude": -58.379652044818,
    "departmentCode": "AR-C-007",
    "departmentName": "Comuna 1",
    "provinceCode": "AR-C",
    "provinceName": "Ciudad Autónoma de Buenos Aires"
  },
  {
    "name": "MONTE CASTRO",
    "type": "entity",
    "censusCode": "02070010002",
    "latitude": -34.6192974826904,
    "longitude": -58.5065803391285,
    "departmentCode": "AR-C-070",
    "departmentName": "Comuna 10",
    "provinceCode": "AR-C",
    "provinceName": "Ciudad Autónoma de Buenos Aires"
  },
  {
    "name": "NUEVA POMPEYA",
    "type": "entity",
    "censusCode": "02028010003",
    "latitude": -34.6505501963997,
    "longitude": -58.4188550090093,
    "departmentCode": "AR-C-028",
    "departmentName": "Comuna 4",
    "provinceCode": "AR-C",
    "provinceName": "Ciudad Autónoma de Buenos Aires"
  },
  {
    "name": "NUÑEZ",
    "type": "entity",
    "censusCode": "02091010003",
    "latitude": -34.5437376606688,
    "longitude": -58.4628575470422,
    "departmentCode": "AR-C-091",
    "departmentName": "Comuna 13",
    "provinceCode": "AR-C",
    "provinceName": "Ciudad Autónoma de Buenos Aires"
  },
  {
    "name": "PALERMO",
    "type": "entity",
    "censusCode": "02098010001",
    "latitude": -34.5738999836423,
    "longitude": -58.4224364523189,
    "departmentCode": "AR-C-098",
    "departmentName": "Comuna 14",
    "provinceCode": "AR-C",
    "provinceName": "Ciudad Autónoma de Buenos Aires"
  },
  {
    "name": "PARQUE AVELLANEDA",
    "type": "entity",
    "censusCode": "02063010003",
    "latitude": -34.64864128675,
    "longitude": -58.47645640345,
    "departmentCode": "AR-C-063",
    "departmentName": "Comuna 9",
    "provinceCode": "AR-C",
    "provinceName": "Ciudad Autónoma de Buenos Aires"
  },
  {
    "name": "PARQUE CHACABUCO",
    "type": "entity",
    "censusCode": "02049010002",
    "latitude": -34.6359392274734,
    "longitude": -58.4376956019926,
    "departmentCode": "AR-C-049",
    "departmentName": "Comuna 7",
    "provinceCode": "AR-C",
    "provinceName": "Ciudad Autónoma de Buenos Aires"
  },
  {
    "name": "PARQUE CHAS",
    "type": "entity",
    "censusCode": "02105010003",
    "latitude": -34.5855218978064,
    "longitude": -58.4791226108546,
    "departmentCode": "AR-C-105",
    "departmentName": "Comuna 15",
    "provinceCode": "AR-C",
    "provinceName": "Ciudad Autónoma de Buenos Aires"
  },
  {
    "name": "PARQUE PATRICIOS",
    "type": "entity",
    "censusCode": "02028010004",
    "latitude": -34.6375496406835,
    "longitude": -58.4016756206755,
    "departmentCode": "AR-C-028",
    "departmentName": "Comuna 4",
    "provinceCode": "AR-C",
    "provinceName": "Ciudad Autónoma de Buenos Aires"
  },
  {
    "name": "PATERNAL",
    "type": "entity",
    "censusCode": "02105010004",
    "latitude": -34.5974220425569,
    "longitude": -58.4686652940674,
    "departmentCode": "AR-C-105",
    "departmentName": "Comuna 15",
    "provinceCode": "AR-C",
    "provinceName": "Ciudad Autónoma de Buenos Aires"
  },
  {
    "name": "PUERTO MADERO",
    "type": "entity",
    "censusCode": "02007010003",
    "latitude": -34.6092161933037,
    "longitude": -58.3563809151849,
    "departmentCode": "AR-C-007",
    "departmentName": "Comuna 1",
    "provinceCode": "AR-C",
    "provinceName": "Ciudad Autónoma de Buenos Aires"
  },
  {
    "name": "RECOLETA",
    "type": "entity",
    "censusCode": "02014010001",
    "latitude": -34.5858760078165,
    "longitude": -58.3949961802632,
    "departmentCode": "AR-C-014",
    "departmentName": "Comuna 2",
    "provinceCode": "AR-C",
    "provinceName": "Ciudad Autónoma de Buenos Aires"
  },
  {
    "name": "RETIRO",
    "type": "entity",
    "censusCode": "02007010004",
    "latitude": -34.5884243429366,
    "longitude": -58.3759359131827,
    "departmentCode": "AR-C-007",
    "departmentName": "Comuna 1",
    "provinceCode": "AR-C",
    "provinceName": "Ciudad Autónoma de Buenos Aires"
  },
  {
    "name": "SAAVEDRA",
    "type": "entity",
    "censusCode": "02084010002",
    "latitude": -34.553063289604,
    "longitude": -58.4887266668384,
    "departmentCode": "AR-C-084",
    "departmentName": "Comuna 12",
    "provinceCode": "AR-C",
    "provinceName": "Ciudad Autónoma de Buenos Aires"
  },
  {
    "name": "SAN CRISTOBAL",
    "type": "entity",
    "censusCode": "02021010002",
    "latitude": -34.623864473461,
    "longitude": -58.4018857979853,
    "departmentCode": "AR-C-021",
    "departmentName": "Comuna 3",
    "provinceCode": "AR-C",
    "provinceName": "Ciudad Autónoma de Buenos Aires"
  },
  {
    "name": "SAN NICOLAS",
    "type": "entity",
    "censusCode": "02007010005",
    "latitude": -34.6036683192305,
    "longitude": -58.3805143256131,
    "departmentCode": "AR-C-007",
    "departmentName": "Comuna 1",
    "provinceCode": "AR-C",
    "provinceName": "Ciudad Autónoma de Buenos Aires"
  },
  {
    "name": "SAN TELMO",
    "type": "entity",
    "censusCode": "02007010006",
    "latitude": -34.6215200115838,
    "longitude": -58.3715453876304,
    "departmentCode": "AR-C-007",
    "departmentName": "Comuna 1",
    "provinceCode": "AR-C",
    "provinceName": "Ciudad Autónoma de Buenos Aires"
  },
  {
    "name": "VELEZ SARSFIELD",
    "type": "entity",
    "censusCode": "02070010003",
    "latitude": -34.6313610222,
    "longitude": -58.493276996941,
    "departmentCode": "AR-C-070",
    "departmentName": "Comuna 10",
    "provinceCode": "AR-C",
    "provinceName": "Ciudad Autónoma de Buenos Aires"
  },
  {
    "name": "VERSALLES",
    "type": "entity",
    "censusCode": "02070010004",
    "latitude": -34.6301234618064,
    "longitude": -58.5224017483433,
    "departmentCode": "AR-C-070",
    "departmentName": "Comuna 10",
    "provinceCode": "AR-C",
    "provinceName": "Ciudad Autónoma de Buenos Aires"
  },
  {
    "name": "VILLA CRESPO",
    "type": "entity",
    "censusCode": "02105010005",
    "latitude": -34.5988344062647,
    "longitude": -58.4427221412974,
    "departmentCode": "AR-C-105",
    "departmentName": "Comuna 15",
    "provinceCode": "AR-C",
    "provinceName": "Ciudad Autónoma de Buenos Aires"
  },
  {
    "name": "VILLA DEL PARQUE",
    "type": "entity",
    "censusCode": "02077010001",
    "latitude": -34.6042463004493,
    "longitude": -58.4906764324396,
    "departmentCode": "AR-C-077",
    "departmentName": "Comuna 11",
    "provinceCode": "AR-C",
    "provinceName": "Ciudad Autónoma de Buenos Aires"
  },
  {
    "name": "VILLA DEVOTO",
    "type": "entity",
    "censusCode": "02077010002",
    "latitude": -34.6023803136553,
    "longitude": -58.5142437101484,
    "departmentCode": "AR-C-077",
    "departmentName": "Comuna 11",
    "provinceCode": "AR-C",
    "provinceName": "Ciudad Autónoma de Buenos Aires"
  },
  {
    "name": "VILLA GENERAL MITRE",
    "type": "entity",
    "censusCode": "02077010003",
    "latitude": -34.6100289507588,
    "longitude": -58.4689425541216,
    "departmentCode": "AR-C-077",
    "departmentName": "Comuna 11",
    "provinceCode": "AR-C",
    "provinceName": "Ciudad Autónoma de Buenos Aires"
  },
  {
    "name": "VILLA LUGANO",
    "type": "entity",
    "censusCode": "02056010001",
    "latitude": -34.6749935792889,
    "longitude": -58.4761629844706,
    "departmentCode": "AR-C-056",
    "departmentName": "Comuna 8",
    "provinceCode": "AR-C",
    "provinceName": "Ciudad Autónoma de Buenos Aires"
  },
  {
    "name": "VILLA LURO",
    "type": "entity",
    "censusCode": "02070010005",
    "latitude": -34.6364127783977,
    "longitude": -58.5027288050931,
    "departmentCode": "AR-C-070",
    "departmentName": "Comuna 10",
    "provinceCode": "AR-C",
    "provinceName": "Ciudad Autónoma de Buenos Aires"
  },
  {
    "name": "VILLA ORTUZAR",
    "type": "entity",
    "censusCode": "02105010006",
    "latitude": -34.5809741138535,
    "longitude": -58.4676516664339,
    "departmentCode": "AR-C-105",
    "departmentName": "Comuna 15",
    "provinceCode": "AR-C",
    "provinceName": "Ciudad Autónoma de Buenos Aires"
  },
  {
    "name": "VILLA PUEYRREDON",
    "type": "entity",
    "censusCode": "02084010003",
    "latitude": -34.5821104495703,
    "longitude": -58.5034848793052,
    "departmentCode": "AR-C-084",
    "departmentName": "Comuna 12",
    "provinceCode": "AR-C",
    "provinceName": "Ciudad Autónoma de Buenos Aires"
  },
  {
    "name": "VILLA REAL",
    "type": "entity",
    "censusCode": "02070010006",
    "latitude": -34.6194831337073,
    "longitude": -58.5259860729102,
    "departmentCode": "AR-C-070",
    "departmentName": "Comuna 10",
    "provinceCode": "AR-C",
    "provinceName": "Ciudad Autónoma de Buenos Aires"
  },
  {
    "name": "VILLA RIACHUELO",
    "type": "entity",
    "censusCode": "02056010002",
    "latitude": -34.6918955269685,
    "longitude": -58.4632519393435,
    "departmentCode": "AR-C-056",
    "departmentName": "Comuna 8",
    "provinceCode": "AR-C",
    "provinceName": "Ciudad Autónoma de Buenos Aires"
  },
  {
    "name": "VILLA SANTA RITA",
    "type": "entity",
    "censusCode": "02077010004",
    "latitude": -34.6161936201559,
    "longitude": -58.4829573518477,
    "departmentCode": "AR-C-077",
    "departmentName": "Comuna 11",
    "provinceCode": "AR-C",
    "provinceName": "Ciudad Autónoma de Buenos Aires"
  },
  {
    "name": "VILLA SOLDATI",
    "type": "entity",
    "censusCode": "02056010003",
    "latitude": -34.6654688444976,
    "longitude": -58.4465225253229,
    "departmentCode": "AR-C-056",
    "departmentName": "Comuna 8",
    "provinceCode": "AR-C",
    "provinceName": "Ciudad Autónoma de Buenos Aires"
  },
  {
    "name": "VILLA URQUIZA",
    "type": "entity",
    "censusCode": "02084010004",
    "latitude": -34.5715411303449,
    "longitude": -58.4878560596649,
    "departmentCode": "AR-C-084",
    "departmentName": "Comuna 12",
    "provinceCode": "AR-C",
    "provinceName": "Ciudad Autónoma de Buenos Aires"
  }
]